---
A:
  name: Anjouan
  code: A
  unofficial_names:
  - Anjouan
  - Ndzuwani
  - Nzwani
  geo:
    latitude: -12.2138145
    longitude: 44.4370606
    min_latitude: -12.3804607
    min_longitude: 44.20471500000001
    max_latitude: -12.069215
    max_longitude: 44.5364756
  translations:
    en: Anjouan
    ar: أنجوان
    az: Anjuan
    be: Востраў Анжуан
    bn: আঞ্জুয়ান
    ca: Anjouan
    cs: Nzwani
    da: Anjouan
    de: Anjouan
    el: Ανζουάν
    es: Anjouan
    et: Ndzwani
    eu: Anjouan
    fa: آنژوان
    fi: Anjouan
    fr: Anjouan
    gl: Anjouan
    gu: એન્જોઅન
    he: אנג׳ואן
    hi: अंजुअन
    hr: Anjouan
    hu: Anjouan
    id: Anjouan
    it: Anjouan
    ja: アンジュアン島
    ka: ნძუანი
    kn: ಅಂಜೌನ್
    ko: 앙주앙 섬
    lt: Anžuanas
    mr: अंजुआन
    ms: Anjouan
    nb: Anjouan
    nl: Anjouan
    pl: Anjouan
    pt: Anjouan
    ro: Anjouan
    ru: Анжуан
    si: අන්ජෝවාන්
    sr: Анжуан
    sv: Anjouan
    sw: Anjouan
    ta: அஞ்சொவன்
    te: అంజోవన్
    th: แอนโจแอน
    tr: Anjouan
    ur: انجوان
    vi: Anjouan
    zh: 昂儒昂岛
    lv: Anžuana
    ceb: Anjouan
    sr_Latn: Anžuan
    ccp: "\U00011103\U0001111A\U00011134\U0001110E\U0001112E\U00011120\U0001111A\U00011134"
    uk: Анжуан
    'no': Anjouan
  comments:
  type: island
G:
  name: Grande Comore
  code: G
  unofficial_names:
  - Grande Comore
  - Njazídja
  geo:
    latitude: -11.7167338
    longitude: 43.3680788
    min_latitude: -11.9393224
    min_longitude: 43.2286278
    max_latitude: -11.3646394
    max_longitude: 43.51371899999999
  translations:
    en: Grande Comore
    ar: القمر الكبرى
    az: Qrand Komor
    be: Востраў Нгазіджа
    bn: গ্রান্ডে কোমোর
    ca: Grande Comore
    cs: Ngazidja
    da: Grande Comore
    de: Grande Comore
    el: Μεγάλη Κομόρα
    es: Gran Comora
    eu: Komora Handia
    fa: گرند کومور
    fi: Grande Comore
    fr: Grande Comore
    gl: Gran Comora
    gu: ગ્રાન્દે કોમોર
    he: גרנד קומורו
    hi: ग्रैंडे कोमोर
    hr: Grande Comore
    id: Komoro Besar
    it: Grande Comore
    ja: グランドコモロ島
    ka: ნგაზიჯა
    kn: ಗ್ರಾಂಡೆ ಕೊಮೊರ್
    ko: 그랑드코모르 섬
    lt: Grand Komoras
    mr: ग्रान्दे कोमोर
    ms: Grande Comore
    nb: Grande Comore
    nl: Grande Comore
    pl: Wielki Komor
    pt: Grande Comore
    ru: Нгазиджа
    si: ග්‍රන්ඩේ කොමෝර්
    sr: Велики Комори
    sv: Grande Comore
    sw: Ngazija
    ta: கிராண்டே காமோரே
    te: గ్రాండ్ కోమోర్
    th: เกาะกร็องด์กอมอร์
    tr: Grande Comore
    uk: Великий Комор
    ur: قمر الکبری
    vi: Grande Comore
    lv: Nazidža (Grankomora)
    ceb: Grande Comore
    sr_Latn: Veliki Komori
    zh: 大科摩罗岛
    ccp: "\U00011109\U00011133\U00011122\U0001111A\U00011133\U00011113\U00011134 \U00011107\U0001112E\U0001111F\U00011122\U00011134"
    'no': Grande Comore
    ha: Grande Comore
    ha_NE: Grande Comore
  comments:
  type: island
M:
  name: Mohéli
  code: M
  unofficial_names:
  - Mohilla
  - Mohéli
  - Moili
  geo:
    latitude: -12.3377376
    longitude: 43.7334089
    min_latitude: -12.3899703
    min_longitude: 43.6219025
    max_latitude: -12.2490952
    max_longitude: 43.8763046
  translations:
    en: Mohéli
    ar: موهيلي
    az: Moheli
    be: Востраў Мвалі
    bn: মুহেলি
    ca: Mohéli
    cs: Mwali
    da: Mohéli
    de: Mohéli
    el: Μοελί
    es: Mohéli
    eu: Moheli
    fi: Mohéli
    fr: Mohéli
    gl: Mohéli
    gu: મોહેલી
    he: מוהלי
    hi: मोहली
    hr: Mohéli
    id: Mohéli
    it: Mohéli
    ja: モヘリ島
    ka: მვალი
    kn: ಮೊಹೆಲಿ
    ko: 모엘리 섬
    lt: Mohelis
    mr: मोहीलि
    ms: Mohéli
    nb: Mohéli
    nl: Mohéli
    pl: Mohéli
    pt: Mohéli
    ro: Mohéli
    ru: Мвали
    si: මොහේලි
    sr: Мохели
    sv: Mohéli
    sw: Moheli
    ta: மொஹெலி
    te: మోహేలీ
    th: มอเอลี
    tr: Moheli
    ur: موہیلی
    vi: Mohéli
    lv: Mvali
    ceb: Mwali (distrito)
    sr_Latn: Moheli
    zh: 莫埃利島
    ccp: "\U0001111F\U00011127\U00011126\U0001112C\U00011123\U00011128"
    uk: Мохелі
    'no': Mohéli
    fa: موهلی
    hu: Mohéli
  comments:
  type: island
