---
ALK:
  name: Ailuk
  code: ALK
  unofficial_names: Ailuk
  geo:
    latitude: 10.304809
    longitude: 169.9416549
    min_latitude: 10.2110366
    min_longitude: 169.8527981
    max_latitude: 10.4770933
    max_longitude: 169.9918842
  translations:
    en: Ailuk Atoll
    ca: Ailuk
    de: Ailuk
    es: Ailuk
    fi: Ailuk
    fr: Ailuk
    gl: Atol Ailuk
    hu: Ailuk Atoll
    it: Ailuk
    ja: アイルック環礁
    ko: 아일루크 환초
    lt: Ailukas
    nl: Ailuk Atoll
    pl: Ailuk
    pt: Ailuk
    ru: Аилук
    sv: Ailuk
    vi: Đảo san hô vòng Ailuk
    zh: 艾盧克環礁
    ceb: Ailuk Atoll (munisipyo)
    fa: آب‌سنگ حلقوی آئیلوک
    ccp: "\U00011103\U0001112D\U00011123\U0001112A\U00011107\U00011134 \U00011103\U00011111\U0001112E\U00011123\U00011134"
    mk: Ајлук
    id: Atol Ailuk
    ur: آئلوک جزیرہ مرجانی
  comments:
  type: municipality
ALL:
  name: Ailinglapalap
  code: ALL
  unofficial_names:
  - Ailinglaplap
  geo:
    latitude: 7.283333300000001
    longitude: 168.7833333
    min_latitude:
    min_longitude:
    max_latitude:
    max_longitude:
  translations:
    en: Ailinglaplap Atoll
    de: Ailinglapalap
    el: Αϊλινγκλάπλαπ
    es: Ailinglaplap
    fi: Ailinglaplap
    fr: Ailinglaplap
    gl: Atol Ailinglaplap
    he: איילינגלאפלאפ
    hr: Ailinglaplap
    it: Ailinglaplap
    ja: アイリングラップ環礁
    ko: 아일링글라플라프 환초
    lt: Ailinglaplapas
    nb: Ailinglaplap
    nl: Ailinglaplap Atoll
    pl: Ailinglaplap
    pt: Ailinglaplap
    ru: Аилинглапалап
    sv: Ailinglapalap
    vi: Đảo san hô vòng Ailinglaplap
    ceb: Ailinglaplap Atoll
    zh: 埃林拉普拉普環礁
    ccp: "\U00011103\U0001112D\U00011123\U00011128\U00011101\U00011123\U0001111B\U00011134\U00011123\U0001111B\U00011134
      \U00011103\U00011111\U0001112E\U00011123\U00011134"
    da: Ailinglaplap
    mk: Ајлинглаплап
    'no': Ailinglaplap
    fa: آتل آیلینگلاپلاپ
    id: Atol Ailinglaplap
    ur: آئلینگ لاپ لاپ جزیرہ مرجانی
  comments:
  type: municipality
ARN:
  name: Arno
  code: ARN
  unofficial_names: Arno
  geo:
    latitude: 7.063888899999999
    longitude: 171.5583332
    min_latitude:
    min_longitude:
    max_latitude:
    max_longitude:
  translations:
    en: Arno
    de: Arno-Atoll
    et: Arno
    fi: Arno (atolli)
    fr: Arno
    gl: Atol Arno
    he: ארנו
    it: Arno
    ja: アルノ環礁
    ko: 아르노 환초
    lt: Arnas
    nl: Arno
    pl: Arno
    ru: Арно (атолл)
    sv: Arnoatollen
    vi: Đảo san hô vòng Arno
    ceb: Arno Atoll (munisipyo)
    zh: 阿爾諾環礁
    fa: آب‌سنگ حلقوی آرنو
    ccp: "\U00011103\U00011122\U00011134\U0001111A\U0001112E"
    es: Arno (isla)
    mk: Арно (атол)
    id: Atol Arno
    ur: آرنو جزیرہ مرجانی
  comments:
  type: municipality
AUR:
  name: Aur
  code: AUR
  unofficial_names: Aur
  geo:
    latitude: 8.2750905
    longitude: 171.0975397
    min_latitude: 8.1297458
    min_longitude: 171.0095787
    max_latitude: 8.3719296
    max_longitude: 171.1815612
  translations:
    en: Aur Atoll
    de: Aur
    es: Aur
    fi: Aur
    fr: Aur
    gl: Atol Aur
    hu: Aur Atoll
    id: Atol Aur
    it: Aur
    ja: オール環礁
    ko: 아우르 환초
    lt: Auras
    nl: Aur Atoll
    pl: Aur
    pt: Aur
    ru: Аур
    sv: Aur
    ceb: Aur Atoll
    zh: 奧爾環礁
    fa: آب‌سنگ حلقوی آئور
    ccp: "\U00011103\U00011105\U0001112A\U00011122\U00011134 \U00011103\U00011111\U0001112E\U00011123\U00011134"
    mk: Аур
    ca: Aur
    ur: آور جزیرہ مرجانی
  comments:
  type: municipality
EBO:
  name: Ebon
  code: EBO
  unofficial_names:
  - Epoon
  geo:
    latitude: 4.6166113
    longitude: 168.7249469
    min_latitude: 4.5729556
    min_longitude: 168.645512
    max_latitude: 4.679086
    max_longitude: 168.771286
  translations:
    en: Ebon Atoll
    be: Атол Эбон
    de: Ebon-Atoll
    es: Ebon
    et: Ebon
    fi: Ebon
    fr: Ebon
    gl: Atol Ebon
    hr: Ebon
    hu: Ebon Atoll
    it: Ebon
    ja: エボン環礁
    ko: 에본 환초
    lt: Ebonas
    nl: Ebon Atoll
    ru: Эбон
    sv: Ebon
    ceb: Ebon
    zh: 埃崩環礁
    fa: آب‌سنگ حلقوی ابون
    pl: Ebon
    ccp: "\U00011103\U0001112C\U0001111D\U00011127\U0001111A\U00011134 \U00011103\U00011111\U0001112E\U00011123\U00011134"
    da: Ebon
    mk: Ебон
    id: Atol Ebon
    ur: ایبون جزیرہ مرجانی
  comments:
  type: municipality
ENI:
  name: Eniwetok
  code: ENI
  unofficial_names:
  - Eniwetok
  geo:
    latitude: 11.3415658
    longitude: 162.3266731
    min_latitude: 11.3357145
    min_longitude: 162.3176258
    max_latitude: 11.3603022
    max_longitude: 162.3477857
  translations:
    en: Enewetak Atoll
    ca: Enewetak
    cs: Eniwetok
    de: Eniwetok
    es: Enewetak
    et: Enewetak
    fa: انوتاک
    fi: Enewetak
    fr: Eniwetok
    gl: Atol Enewetak
    he: אנווטאק
    hr: Enewetak
    it: Enewetak
    ja: エニウェトク環礁
    ko: 에네웨타크 환초
    lt: Enivetokas
    nb: Enewetakatollen
    nl: Enewetak
    pl: Atol Eniwetok
    pt: Enewetak
    ru: Эниветок
    sk: Eniwetok
    sl: Eniwetok
    sv: Enewetak
    tr: Enewetak Mercan Adaları
    uk: Еніветок
    vi: Đảo san hô vòng Enewetak
    ceb: Enewetak Atoll
    zh: 埃內韋塔克環礁
    ccp: "\U00011103\U0001112C\U0001111A\U00011128\U00011103\U0001112E\U00011120\U0001112C\U00011111\U00011107\U00011134
      \U00011103\U00011111\U0001112E\U00011123\U00011134"
    id: Atol Enewetak
    mk: Еневетак
    'no': Enewetakatollen
    ar: آتول إنيويتوك
    eu: Enewetak
    ur: اینیویٹک جزیرہ مرجانی
  comments:
  type: municipality
JAB:
  name: Jabat
  code: JAB
  unofficial_names:
  - Jabat
  geo:
    latitude: 7.7517
    longitude: 168.9767
    min_latitude:
    min_longitude:
    max_latitude:
    max_longitude:
  translations:
    en: Jabat Island
    cs: Jabat
    de: Jabwot
    es: Jabat
    fi: Jabat
    fr: Jabat
    gl: Illa Jabat
    hr: Jabwat
    it: Jabat
    ja: ジャボット島
    ko: 자바트 섬
    lt: Džabatas
    nl: Jabat Island
    pl: Jabwot
    ru: Джабат
    sv: Jabwot
    ceb: Jabat Island (munisipyo)
    zh: 賈普坦島
    fa: جزیره جابات
    ccp: "\U0001110E\U0001111D\U00011127\U00011116\U00011134 \U00011103\U00011128\U0001110C\U00011134\U00011123\U00011133\U00011120\U0001111A\U00011133\U00011113\U00011134"
    mk: Џабат
    id: Pulau Jabat
    ur: جزیرہ جابات
  comments:
  type: municipality
JAL:
  name: Jaluit
  code: JAL
  unofficial_names:
  - Jālwōj
  geo:
    latitude: 5.9092582
    longitude: 169.6372575
    min_latitude: 5.904506
    min_longitude: 169.6336838
    max_latitude: 5.9135236
    max_longitude: 169.6408152
  translations:
    en: Jaluit Atoll
    ar: جالويت
    be: Атол Джалуіт
    de: Jaluit
    es: Jaluit
    fa: آب‌سنگ حلقوی جالوئیت
    fi: Jaluit
    fr: Jaluit
    gl: Atol Jaluit
    he: ג׳לואיט
    hr: Jaluit
    hu: Jaluit Atoll
    hy: Ջալուիտ
    it: Jaluit
    ja: ジャルート環礁
    ko: 잘루이트 환초
    lt: Džaluitas
    nl: Jaluit
    pl: Jaluit
    ru: Джалуит
    sv: Jaluit
    vi: Đảo san hô vòng Jaluit
    ceb: Jaluit Atoll (munisipyo)
    zh: 賈盧伊特環礁
    ccp: "\U0001110E\U00011123\U00011128\U00011120\U0001112C\U00011116\U00011134 \U00011103\U00011111\U0001112E\U00011123\U00011134"
    mk: Џалуит
    cs: Jaluit
    id: Atol Jaluit
    ur: جالویت جزیرہ مرجانی
  comments:
  type: municipality
KIL:
  name: Kili
  code: KIL
  unofficial_names:
  - Kōle
  geo:
    latitude: 5.6405493
    longitude: 169.1181599
    min_latitude: 5.637340099999999
    min_longitude: 169.1113473
    max_latitude: 5.6515189
    max_longitude: 169.13229
  translations:
    en: Kili Island
    be: Востраў Кілі
    de: Kili-Insel
    es: Kili
    fi: Kili
    fr: Kili
    gl: Atol Kili
    hr: Kili
    hu: Kili
    it: Kili
    ja: キリ島
    ko: 킬리 섬
    lt: Kilis
    nl: Kili Island
    pl: Kili
    ru: Кили
    zh: 吉利島
    fa: جزیره کیلی
    ccp: "\U00011107\U00011128\U00011123\U00011128 \U00011103\U00011128\U0001110C\U00011134\U00011123\U00011133\U00011120\U0001111A\U00011133\U00011113\U00011134"
    mk: Кили
    ceb: Kili Island (munisipyo)
    id: Pulau Kili
    sv: Kiliön
    ur: جزیرہ کیکی
  comments:
  type: municipality
KWA:
  name: Kwajalein
  code: KWA
  unofficial_names:
  - Kuwajleen
  geo:
    latitude: 9.1898235
    longitude: 167.4242972
    min_latitude: 8.712679099999999
    min_longitude: 166.8109131
    max_latitude: 9.4097746
    max_longitude: 167.7770233
  translations:
    en: Kwajalein
    be: Атол Кваджалейн
    bg: Куаджалин
    cs: Kwajalein
    da: Kwajalein
    de: Kwajalein
    es: Kwajalein
    fa: کواجالین
    fi: Kwajalein
    fr: Kwajalein
    gl: Atol Kwajalein
    he: קווג׳לין
    hr: Kwajalein
    it: Kwajalein
    ja: クェゼリン環礁
    ka: კვაჯალეინი
    ko: 콰잘레인 환초
    lt: Kvadžaleinas
    nb: Kwajalein
    nl: Kwajalein
    pl: Kwajalein
    pt: Kwajalein
    ro: Atolul Kwajalein
    ru: Кваджалейн
    sk: Kwajalein
    sv: Kwajalein
    uk: Кваджалейн
    vi: Kwajalein
    ceb: Kwajalein
    ms: Kwajalein
    zh: 瓜加林環礁
    ccp: "\U00011107\U00011133\U00011126\U00011127\U0001110E\U00011123\U0001112C\U0001112D\U0001111A\U00011134"
    mk: Кваџалејн
    'no': Kwajalein
    ar: جزيرة كواجالين
    ca: Kwajalein
    eu: Kwajalein atoloia
    id: Atol Kwajalein
    ur: کواجالئین جزیرہ مرجانی
  comments:
  type: municipality
L:
  name: Ralik Chain
  code: L
  unofficial_names:
  geo:
    latitude:
    longitude:
    min_latitude:
    min_longitude:
    max_latitude:
    max_longitude:
  translations:
    ar: راليك تشين
    bn: রালিকচেইন
    da: Ralik Chain
    de: Ralik-Kette
    el: Ράλικ Τσέιν
    en: Ralik Chain
    es: Ralik Cadena
    et: Raliki saared
    fi: Ralik
    fr: Îles Ralik
    gu: રાલિક ચેઇન
    he: שרשרת רליק
    hi: रालिक चेन
    hr: Ralik
    id: Ralik Chain
    it: Ralik
    ja: ラリック列島
    ka: რალიკის ჯაჭვი
    kn: ರಾಲಿಕ್ ಚೈನ್
    ko: 랄리크 열도
    lt: Raliko salos
    mr: रालिक चेन
    ms: Ralik Chain
    nb: Ralik-kjeden
    nl: Ralik Chain
    pl: Ralik Chain
    pt: Cadeia Ralik
    ru: Цепь Ралик
    si: රලික් චේන්
    sv: Raliköarna
    ta: ராலிக் செயின்
    te: రాలిక్ చైన్
    th: ลาลิก เชน
    tr: Ralik Chain
    uk: Ланцюг Ралік
    ur: رالیک چین
    vi: Chuỗi đảo Ralik
    lv: Raliku salas
    ceb: Ralik Chain
    zh: 拉利克礁鏈
    fa: زنجیره رالیک
    ccp: "\U00011122\U00011123\U00011128\U00011107\U00011134 \U0001110C\U0001112C\U0001112D\U0001111A\U00011134"
    mk: Ралички Острови
    'no': Ralik-kjeden
  comments:
  type: chain_of_islands
LAE:
  name: Lae
  code: LAE
  unofficial_names: Lae
  geo:
    latitude: 8.9411081
    longitude: 166.2363248
    min_latitude: 8.9150051
    min_longitude: 166.2089826
    max_latitude: 8.967658199999999
    max_longitude: 166.2777327
  translations:
    en: Lae Atoll
    de: Lae-Atoll
    es: Lae (atolón)
    fi: Lae
    fr: Lae
    gl: Atol Lae
    hr: Lae
    it: Lae
    ja: ラエー環礁
    ko: 라에 환초
    lt: Laė
    nl: Lae Atoll
    pl: Lea
    pt: Atol Lae
    ru: Лаэ
    sv: Lae
    ceb: Lae
    zh: 拉埃環礁
    fa: آب‌سنگ حلقوی لائه
    ccp: "\U00011123 \U00011103\U00011111\U0001112E\U00011123\U00011134"
    mk: Лае
    ca: Atol Lae
    id: Atol Lae
    ur: لاے جزیرہ مرجانی
  comments:
  type: municipality
LIB:
  name: Lib
  code: LIB
  unofficial_names:
  - Ellep
  geo:
    latitude: 8.3131833
    longitude: 167.3758673
    min_latitude: 8.311995399999999
    min_longitude: 167.3744881
    max_latitude: 8.3155625
    max_longitude: 167.3767197
  translations:
    en: Lib Island
    de: Lib
    es: Lib
    fi: Lib
    fr: Lib
    gl: Lib
    hr: Lib
    it: Lib
    ja: リブ島
    ko: 리브 섬
    lt: Libas
    nl: Lib Island
    pl: Lib
    ru: Либ
    sv: Lib
    ceb: Lib Island (munisipyo)
    zh: 里布島
    fa: جزیره لیب
    ccp: "\U00011122\U00011128\U0001111B\U00011134 \U00011103\U00011128\U0001110C\U00011134\U00011123\U00011133\U00011120\U0001111A\U00011133\U00011113\U00011134"
    mk: Либ
    id: Pulau Lib
    ur: جزیرہ لب
  comments:
  type: municipality
LIK:
  name: Likiep
  code: LIK
  unofficial_names: Likiep
  geo:
    latitude: 9.816944399999999
    longitude: 169.3052778
    min_latitude:
    min_longitude:
    max_latitude:
    max_longitude:
  translations:
    en: Likiep Atoll
    de: Likiep
    es: Likiep
    fi: Likiep
    fr: Likiep
    gl: Atol Likiep
    it: Likiep
    ja: リキエップ環礁
    ko: 리키에프 환초
    lt: Likiepas
    nl: Likiep Atoll
    pl: Likiep
    ru: Ликиеп
    sv: Likiep
    ceb: Likiep Atoll (munisipyo)
    zh: 利基埃普環礁
    ccp: "\U00011123\U00011128\U00011107\U00011128\U00011120\U0001112C\U0001111B\U00011134
      \U00011103\U00011111\U0001112E\U00011123\U00011134"
    mk: Ликиеп
    ar: ليكييب
    ca: Likiep
    fa: آبسنگ حلقوی لیکیپ
    id: Atol Likiep
    pt: Likiep
    ur: لیکئپ جزیرہ مرجانی
  comments:
  type: municipality
MAJ:
  name: Majuro
  code: MAJ
  unofficial_names:
  - Mājro
  geo:
    latitude: 7.1164214
    longitude: 171.1857736
    min_latitude: 7.0525503
    min_longitude: 171.0259247
    max_latitude: 7.2235615
    max_longitude: 171.3849867
  translations:
    en: Majuro
    af: Majuro
    am: ማጁሮ
    ar: ماجورو
    az: Macuro
    be: Горад Маджура
    bg: Маджуро
    bn: মাজুরো
    ca: Majuro
    cs: Majuro
    da: Majuro
    de: Majuro-Atoll
    el: Ματζούρο
    es: Majuro
    et: Majuro atoll
    eu: Majuro
    fa: ماجورو
    fi: Majuro
    fr: Majuro
    gl: Majuro
    gu: માજુરો
    he: מג׳ורו
    hi: माजुरो
    hr: Majuro
    hu: Majuro
    hy: Մաջուրո
    id: Majuro
    is: Majúró
    it: Majuro
    ja: マジュロ
    ka: მაჯურო
    kn: ಮಜುರೊ
    ko: 마주로
    lt: Madžūras
    lv: Madžuro
    mr: माजुरो
    ms: Majuro
    nb: Majuro
    nl: Majuro
    pl: Majuro
    pt: Majuro
    ro: Majuro
    ru: Маджуро
    si: මජුරෝ
    sk: Dalap-Uliga-Darrit
    sl: Majuro
    sr: Маџуро
    sv: Majuro
    sw: Majuro
    ta: மாசூரோ
    te: మాజురో
    th: มาจูโร
    tr: Majuro
    uk: Маджуро
    ur: ماجورو
    vi: Majuro
    cy: Majuro
    ceb: Majuro Atoll (munisipyo)
    sr_Latn: Madžuro
    zh: 馬久羅
    yue_Hans: 马祖卢
    sq: Majuro
    ccp: "\U0001111F\U0001110E\U0001112A\U00011122\U0001112E"
    pa: ਮਾਜੁਰੋ
    yue: 馬祖盧
    uz: Majuro
    bs: Majuro
    mk: Маџуро
    'no': Majuro
    kk: Маджуро
    ml: മാജുറോ
    ps: ماجورو
  comments:
  type: municipality
MAL:
  name: Maloelap
  code: MAL
  unofficial_names: Maloelap
  geo:
    latitude: 8.7735171
    longitude: 171.0312989
    min_latitude: 8.4817105
    min_longitude: 170.827446
    max_latitude: 8.9118677
    max_longitude: 171.2449265
  translations:
    en: Maloelap Atoll
    de: Maloelap
    es: Maloelap
    fi: Maloelap
    fr: Maloelap
    gl: Atol Maloelap
    hu: Maloelap Atoll
    it: Maloelap
    ja: マロエラップ環礁
    ko: 말로엘라프 환초
    lt: Maloelapas
    nl: Maloelap Atoll
    pl: Maloelap
    pt: Atol Maloelap
    ru: Малоэлап
    sv: Maloelap
    tr: maloelap atoll
    vi: Maloelap
    ceb: Maloelap Atoll
    zh: 馬洛埃拉普環礁
    fa: آب‌سنگ حلقوی ماولاپ
    ccp: "\U0001111F\U00011123\U0001112E\U00011120\U0001112C\U00011123\U0001111B\U00011134
      \U00011103\U00011111\U0001112E\U00011123\U00011134"
    mk: Малоелап
    ca: Maloelap
    id: Atol Maloelap
    uk: Малоелап
    ur: مالوئلاپ جزیرہ مرجانی
  comments:
  type: municipality
MEJ:
  name: Mejit
  code: MEJ
  unofficial_names:
  - Mājeej
  geo:
    latitude: 10.2936198
    longitude: 170.8709872
    min_latitude: 10.2668883
    min_longitude: 170.8581735
    max_latitude: 10.306897
    max_longitude: 170.8803177
  translations:
    en: Mejit Island
    de: Mejit
    es: Mejit
    fi: Mejit
    fr: Mejit
    gl: Illa Mejit
    it: Mejit
    ja: メジット島
    ko: 메지트 섬
    lt: Medžitas
    nl: Mejit Island
    pl: Mejit
    ru: Меджит
    sv: Mejit
    ceb: Mejit Island
    zh: 梅吉特島
    fa: آب‌سنگ حلقوی میجیت
    ccp: "\U0001111F\U0001112C\U0001110E\U00011128\U00011116\U00011134 \U00011103\U00011128\U0001110C\U00011134\U00011123\U00011133\U00011120\U0001111A\U00011133\U00011113\U00011134"
    ca: Mejit
    mk: Меџит
    id: Pulau Mejit
    ur: جزیرہ میجیت
  comments:
  type: municipality
MIL:
  name: Mili
  code: MIL
  unofficial_names: Mili
  geo:
    latitude: 6.1339492
    longitude: 171.909826
    min_latitude: 5.9619976
    min_longitude: 171.7130469
    max_latitude: 6.263768799999999
    max_longitude: 172.1221161
  translations:
    en: Mili Atoll
    de: Mili
    es: Mili
    eu: Mili atoloia
    fi: Mili
    fr: Mili
    gl: Atol Mili
    he: מילי
    it: Mili
    ja: ミリ環礁
    ko: 밀리 환초
    lt: Milis
    nl: Mili Atoll
    pl: Mili
    ru: Мили
    sv: Mili
    ceb: Mili Atoll (pulong kagaangan)
    zh: 米利環礁
    fa: آب‌سنگ حلقوی میلی
    ccp: "\U0001111F\U00011128\U00011122\U00011128 \U00011103\U00011111\U0001112E\U00011123\U00011134"
    mk: Мили
    da: Mili Atoll
    id: Atol Mili
    ur: میلی جزیرہ مرجانی
  comments:
  type: municipality
NMK:
  name: Namorik
  code: NMK
  unofficial_names: Namorik
  geo:
    latitude: 5.6172553
    longitude: 168.1293615
    min_latitude: 5.5870997
    min_longitude: 168.0974954
    max_latitude: 5.6431987
    max_longitude: 168.1334145
  translations:
    en: Namdrik Atoll
    de: Namorik
    es: Namorik
    fi: Namorik
    fr: Namdrik
    gl: Atol Namorik
    hr: Namorik
    it: Namorik
    ja: ナモリック環礁
    ko: 나모리크 환초
    lt: Namdrikas
    nl: Namdrik Atoll
    pl: Namorik
    pt: Namorik
    ru: Наморик
    sv: Namorik
    ceb: Namdrik
    zh: 納莫里克環礁
    fa: آب‌سنگ حلقوی نامداریک
    ccp: "\U0001111A\U0001111F\U00011134\U00011113\U00011133\U00011122\U00011128\U00011107\U00011134
      \U00011103\U00011111\U0001112E\U00011123\U00011134"
    mk: Намдрик
    ar: حلقة نامدريك
    id: Atol Namorik
    ur: نامدریک جزیرہ مرجانی
  comments:
  type: municipality
NMU:
  name: Namu
  code: NMU
  unofficial_names:
  - Namo
  geo:
    latitude: 7.900718800000001
    longitude: 168.2248291
    min_latitude: 7.744331799999999
    min_longitude: 167.9631042
    max_latitude: 8.2196454
    max_longitude: 168.3132935
  translations:
    en: Namu Atoll
    cs: Namu
    de: Namu
    es: Namu (atolón)
    eu: Namu atoloia
    fi: Namu
    fr: Namu
    gl: Atol Namu
    hr: Namu
    it: Namu
    ja: ナムー環礁
    ko: 나무 환초
    lt: Namu
    nl: Namu Atoll
    pl: Namu
    pt: Atol Namu
    ru: Наму
    sv: Namu
    ceb: Namu Atoll (munisipyo)
    zh: 納木環礁
    fa: آب‌سنگ حلقوی نامو
    ccp: "\U0001111A\U0001111F\U0001112A \U00011103\U00011111\U0001112E\U00011123\U00011134"
    mk: Наму
    id: Atol Namu
    ur: نامو جزیرہ مرجانی
  comments:
  type: municipality
RON:
  name: Rongelap
  code: RON
  unofficial_names: Rongelap
  geo:
    latitude: 11.3603915
    longitude: 166.7798172
    min_latitude: 11.1462347
    min_longitude: 166.6118289
    max_latitude: 11.5044166
    max_longitude: 167.0652294
  translations:
    en: Rongelap Atoll
    be: Атол Рангелап
    de: Rongelap-Atoll
    es: Rongelap
    fi: Rongelap
    fr: Rongelap
    gl: Atol Rongelap
    hr: Rongelap
    it: Rongelap
    ja: ロンゲラップ環礁
    ko: 롱겔라프 환초
    lt: Rongelapas
    lv: Rongelapa
    nb: Rongelap
    nl: Rongelap
    pl: Rongelap
    pt: Atol Rongelap
    ru: Ронгелап
    sv: Rongelap
    vi: Rongelap
    ceb: Rongelap Atoll (munisipyo)
    zh: 朗格拉普環礁
    ccp: "\U00011122\U00011127\U0001111A\U00011134\U00011109\U0001112C\U00011123\U0001111B\U00011134
      \U00011103\U00011111\U0001112E\U00011123\U00011134"
    uk: Атол Ронгелап
    mk: Ронгелап
    'no': Rongelap
    fa: جزیره مرجانی رانگلپ
    he: אטול רונגלפ
    id: Atol Rongelap
    ur: رونگیلاپ جزیرہ مرجانی
  comments:
  type: municipality
T:
  name: Ratak Chain
  code: T
  unofficial_names:
  geo:
    latitude:
    longitude:
    min_latitude:
    min_longitude:
    max_latitude:
    max_longitude:
  translations:
    ar: سلسلة راتاك
    bn: রাতাক চেইন
    da: Ratak Chain
    de: Ratak-Kette
    el: Ρατάκ Τσέιν
    en: Ratak Chain
    es: Ratak Chain
    et: Rataki saared
    eu: Ratak Katea
    fi: Ratak
    fr: Îles Ratak
    gu: રાતક ચેઇન
    he: שרשרת רטק
    hi: रतक चेन
    hr: Ratak
    id: Ratak Chain
    it: Isole Ratak
    ja: ラタック列島
    ka: რატაკის ჯაჭვი
    kn: ರಟಾಕ್ ಚೈನ್
    ko: 라타크 열도
    lt: Ratako salos
    mr: रत्क चेन
    ms: Ratak Chain
    nb: Ratak Chain
    nl: Ratak Chain
    pl: Ratak Chain
    pt: Cadeia Ratak
    ru: Цепь Ратак
    si: රටක් චේන්
    sv: Rataköarna
    ta: ராடக் செயின்
    te: రాటక్ చైన్
    th: แนวเกาะราตัก
    tr: Ratak Chain
    uk: Ланцюг Ратак
    ur: راتاک چین
    vi: Chuỗi đảo Ratak
    lv: Rataku salas
    ceb: Ratak Chain
    zh: 拉塔克礁鏈
    fa: زنجیره راتاک
    ccp: "\U00011122\U00011111\U00011107\U00011134 \U0001110C\U0001112C\U0001112D\U0001111A\U00011134"
    mk: Ратачки Острови
    'no': Ratak Chain
  comments:
  type: chain_of_islands
UJA:
  name: Ujae
  code: UJA
  unofficial_names: Ujae
  geo:
    latitude: 9.0582174
    longitude: 165.6440842
    min_latitude: 8.922806
    min_longitude: 165.5181098
    max_latitude: 9.2262549
    max_longitude: 165.7703877
  translations:
    en: Ujae Atoll
    de: Ujae
    es: Ujae
    fi: Ujae
    fr: Ujae
    gl: Atol Ujae
    hr: Ujae
    id: Atol Ujae
    it: Ujae
    ja: ウジャエ環礁
    ko: 우자에 환초
    lt: Udžaė
    nl: Ujae Atoll
    pl: Ujae
    ru: Уджаэ
    sv: Ujae
    ceb: Ujae Atoll (munisipyo)
    zh: 烏賈環礁
    fa: آب‌سنگ حلقوی اوجائه
    ccp: "\U00011105\U0001112A\U0001110E\U0001112C \U00011103\U00011111\U0001112E\U00011123\U00011134"
    mk: Уџае
    ca: Ujae
    ur: اوجئے جزیرہ مرجانی
  comments:
  type: municipality
UJL:
  name: Ujelang
  code: UJL
  unofficial_names: Ujelang
  geo:
    latitude: 9.77
    longitude: 160.9752777
    min_latitude:
    min_longitude:
    max_latitude:
    max_longitude:
  translations:
    en: Ujelang
  comments:
  type: municipality
UTI:
  name: Utirik
  code: UTI
  unofficial_names:
  - Utirik
  - Utrōk
  - Utrōnk
  geo:
    latitude: 11.2226114
    longitude: 169.8544701
    min_latitude: 11.2214237
    min_longitude: 169.8474976
    max_latitude: 11.2233218
    max_longitude: 169.8563474
  translations:
    en: Utirik Atoll
    be: Атол Утырык
    ca: Utirik
    de: Utirik
    es: Utirik
    eu: Utirik
    fi: Utirik
    fr: Utirik
    gl: Atol Utirik
    it: Utirik
    ja: ウチリック環礁
    ko: 우티리크 환초
    lt: Utirikas
    nl: Utirik Atoll
    pl: Utirik
    pt: Atol Utirik
    ru: Утирик
    sv: Utirik
    ceb: Utrik
    zh: 烏蒂里克環礁
    fa: آب‌سنگ حلقوی اوتیریک
    ccp: "\U00011105\U0001112A\U00011111\U00011128\U00011122\U00011128\U00011107\U00011134
      \U00011103\U00011111\U0001112E\U00011123\U00011134"
    mk: Утирик
    cy: Atol Wtiric
    id: Atol Utirik
    ur: اوتیریک جزیرہ مرجانی
  comments:
  type: municipality
WTH:
  name: Wotho
  code: WTH
  unofficial_names:
  - Wōtto
  geo:
    latitude: 10.1024946
    longitude: 165.9811564
    min_latitude: 10.0144328
    min_longitude: 165.9193897
    max_latitude: 10.1839202
    max_longitude: 166.0299827
  translations:
    en: Wotho Atoll
    de: Wotho
    es: Wotho
    fi: Wotho
    fr: Wotho
    gl: Atol Wotho
    hr: Wotho
    id: Atol Wotho
    it: Wotho
    ja: オトー環礁
    ko: 워토 환초
    lt: Votas
    nl: Wotho Atoll
    pl: Wotho
    ru: Вото
    sv: Wotho
    ceb: Wotho
    zh: 沃特環礁
    ccp: "\U00011124\U00011117\U0001112E \U00011103\U00011111\U0001112E\U00011123\U00011134"
    mk: Вото
    ca: Wotho
    ur: ووتھو جزیرہ مرجانی
  comments:
  type: municipality
WTJ:
  name: Wotje
  code: WTJ
  unofficial_names: Wotje
  geo:
    latitude: 9.452366999999999
    longitude: 170.237213
    min_latitude:
    min_longitude:
    max_latitude:
    max_longitude:
  translations:
    en: Wotje Atoll
    de: Wotje
    es: Wotje
    fi: Wotje
    fr: Wotje
    gl: Atol Wotje
    it: Wotje
    ja: ウォッジェ環礁
    ko: 웟제 환초
    lt: Votjė
    nl: Wotje Atoll
    pl: Wotje
    pt: Atol Wotje
    ru: Вотье
    sv: Wotje
    uk: Вотьє
    ceb: Wotje Atoll
    zh: 沃特傑環礁
    ccp: "\U00011124\U00011116\U00011134\U0001110E\U0001112C \U00011103\U00011111\U0001112E\U00011123\U00011134"
    mk: Вотје
    ca: Wotje
    id: Atol Wotje
    ur: واتجے جزیرہ مرجانی
  comments:
  type: municipality
